{
  "orders" : [
    {
      "order_id": 1 ,
      "total_price": 20,
      "lat": 29.962696,
      "long": 31.276942,
      "status": "waiting",
      "city": "Maadi",
    "date": "2023-06-12T20:53:00",
    "sub_title": "plus"

    },
    {
      "order_id": 2 ,
      "total_price": 30,
      "lat": 30.606298,
      "long": 31.288204,
      "status": "waiting",
      "city": "Nasr city",
    "date": "2023-06-12T23:53:00",
    "sub_title": "lite"

    },
    {
      "order_id": 3 ,
      "total_price": 40,
      "lat": 29.848319 ,
      "long": 31.336853,
      "status": "waiting",
      "city": "Helwan",
    "date": "2023-06-12T22:53:00",
    "sub_title": "lite"

    },
    {
      "order_id": 4 ,
      "total_price": 50,
      "lat": 24.088938,
      "long": 32.899830,
      "status": "assigned",
      "city": "Aswan",
    "date": "2023-06-12T21:53:00",
    "sub_title": "lite"

    },
    {
      "order_id": 5 ,
      "total_price": 60,
      "lat": 31.205753,
      "long": 29.924526,
      "status": "waiting",
      "city": "Alex",
    "date": "2023-06-13T20:53:00",
    "sub_title": "plus"

    }
  ]
}