{
  "orders" : [
    {
      "order_id": 1 ,
      "total_price": 20,
      "lat": 29.962696,
      "long": 31.276942,
      "status": "waiting",
      "city": "Maadi"

    },
    {
      "order_id": 2 ,
      "total_price": 30,
      "lat": 30.606298,
      "long": 31.288204,
      "status": "waiting",
      "city": "Nasr city"

    },
    {
      "order_id": 3 ,
      "total_price": 40,
      "lat": 29.848319 ,
      "long": 31.336853,
      "status": "waiting",
      "city": "Helwan"

    },
    {
      "order_id": 4 ,
      "total_price": 50,
      "lat": 24.088938,
      "long": 32.899830,
      "status": "assigned",
      "city": "Aswan"

    },
    {
      "order_id": 5 ,
      "total_price": 60,
      "lat": 31.205753,
      "long": 29.924526,
      "status": "waiting",
      "city": "Alex"

    }
  ]
}